{"html_attributions": [], "next_page_token": "AW30NDwIgwsS5WI6_k2aNGGKMowdAqoREoPIMGmXPEzmG_pWpyk1mN14rQmG6qFgD91qpO_U7r7RV0UdyUcBqq8lC4CHF06oRGUt4p4kHGBnZK2Gk4ODZW7NQK8zrACiu6P11-FUwNdkamMUICkEOSrqLrfxHdVYlMHJ6_XEd2fo4KSJK80EcIJSHtjjPQmoJK2kh9r1LLGqkrJcZp98IFXPACeh54OwVovTSM2PggGtPrDXvcnmB8AODcqTofzqc0aWGJehI68nlNnnez1izss6i-TrXogBBw0QbmoAHsUZMO8_lC6d3NqYMe8u4U9X2nZXz_korLZTe3rxGaI-_ck01HF_TOsLHKiGLvGxOh3-UEPqWZ_PVwIl0DoiByAIKaeeYsvoiy_QCqczLBcwCxzBt9lXGJxlUSEC2_NvidgqpML2ZSSmThscLW1UtkPE8Q", "results": [{"business_status": "OPERATIONAL", "formatted_address": "2890 N Franklin St D, Christiansburg, VA 24073, United States", "geometry": {"location": {"lat": 37.1693, "lng": -80.4221}, "viewport": {"northeast": {"lat": 37.17054417989272, "lng": -80.42063252010728}, "southwest": {"lat": 37.16784452010728, "lng": -80.42333217989272}}}, "icon": "https://maps.gstatic.com/mapfiles/place_api/icons/v1/png_71/generic_business-71.png", "icon_background_color": "#7B9EB0", "icon_mask_base_uri": "https://maps.gstatic.com/mapfiles/place_api/icons/v2/generic_pinlet", "name": "New River Soccer Association", "opening_hours": {"open_now": false}, "place_id": "ChIJ1a1vy5yUTYgRQ15uDxxh43g", "plus_code": {"compound_code": "5H9H+P5 Christiansburg, Virginia", "global_code": "869X5H9H+P5"}, "rating": 4, "reference": "ChIJ1a1vy5yUTYgRQ15uDxxh43g", "types": ["point_of_interest", "establishment"], "user_ratings_total": 12}, {"business_status": "OPERATIONAL", "formatted_address": "3401 Bruin Ln, Blacksburg, VA 24060, United States", "geometry": {"location": {"lat": 37.2131392, "lng": -80.46190109999999}, "viewport": {"northeast": {"lat": 37.21443847989273, "lng": -80.46019802010727}, "southwest": {"lat": 37.21173882010728, "lng": -80.4628976798927}}}, "icon": "https://maps.gstatic.com/mapfiles/place_api/icons/v1/png_71/school-71.png", "icon_background_color": "#7B9EB0", "icon_mask_base_uri": "https://maps.gstatic.com/mapfiles/place_api/icons/v2/school_pinlet", "name": "Blacksburg High School Soccer Fields", "photos": [{"height": 3264, "html_attributions": ["<a href=\"https://maps.google.com/maps/contrib/106793250948541917202\">Johanna H</a>"], "photo_reference": "AW30NDwlUgXFmDYLp_zKEHGEGophHWzojnov4p3y4d0IrmDXPZP9BK8B4DzJbebRFyb_i__X1IDFO5oPSd-jgw_EkD9DZyIpxiPgPloCKxXSQ_LuG4RcUkMT92JwaFF3zbJzreU05OfZ4S-Y4zWZE_g7rxZhLZCXTap3nZekHlgdk2RG5iy-", "width": 1836}], "place_id": "ChIJcdxaRNbqTYgRSMgViTSC6lM", "plus_code": {"compound_code": "6G7Q+76 Blacksburg, Virginia", "global_code": "869X6G7Q+76"}, "rating": 3.8, "reference": "ChIJcdxaRNbqTYgRSMgViTSC6lM", "types": ["secondary_school", "school", "point_of_interest", "establishment"], "user_ratings_total": 42}, {"business_status": "OPERATIONAL", "formatted_address": "Virginia St, Blacksburg, VA 24060, United States", "geometry": {"location": {"lat": 37.2156262, "lng": -80.4206921}, "viewport": {"northeast": {"lat": 37.21663447989273, "lng": -80.41902837010727}, "southwest": {"lat": 37.21393482010728, "lng": -80.4217280298927}}}, "icon": "https://maps.gstatic.com/mapfiles/place_api/icons/v1/png_71/generic_business-71.png", "icon_background_color": "#7B9EB0", "icon_mask_base_uri": "https://maps.gstatic.com/mapfiles/place_api/icons/v2/generic_pinlet", "name": "Lower South Recreation (SRA) Fields", "photos": [{"height": 2731, "html_attributions": ["<a href=\"https://maps.google.com/maps/contrib/108583012020341517489\">Muntasir Wahed</a>"], "photo_reference": "AW30NDyhbB283nsbe4lbbDterKj5PXDkfit3ztAbZ66UeVY8Ei3UOGiFWMjdP99XN1uEkyMLXhOxXPgLvufPdQ2_2CAcQ9J0hBEo3bgDkT7SgBzXKcEDCvUbDvrDuLlP41QRhK7qF_FnWmT_3k9bjSpqgVWqarNSgWiQ1hiKJ-KGEuMLKFlU", "width": 2731}], "place_id": "ChIJcbmv2QSVTYgR7akd0SrWFbo", "plus_code": {"compound_code": "6H8H+7P Blacksburg, Virginia", "global_code": "869X6H8H+7P"}, "rating": 4.5, "reference": "ChIJcbmv2QSVTYgR7akd0SrWFbo", "types": ["point_of_interest", "establishment"], "user_ratings_total": 55}, {"business_status": "OPERATIONAL", "formatted_address": "49 Berkley Williams Dr, Radford, VA 24141, United States", "geometry": {"location": {"lat": 37.1355212, "lng": -80.5772394}, "viewport": {"northeast": {"lat": 37.13669252989272, "lng": -80.57576197010728}, "southwest": {"lat": 37.13399287010728, "lng": -80.57846162989271}}}, "icon": "https://maps.gstatic.com/mapfiles/place_api/icons/v1/png_71/generic_business-71.png", "icon_background_color": "#7B9EB0", "icon_mask_base_uri": "https://maps.gstatic.com/mapfiles/place_api/icons/v2/generic_pinlet", "name": "Southwest Virginia Rush Soccer Club", "photos": [{"height": 602, "html_attributions": ["<a href=\"https://maps.google.com/maps/contrib/118108875181319447762\">A Google User</a>"], "photo_reference": "AW30NDzgjUq886bkfBK7FSOHoLFE8mYfBQvDoGFZoDIvEtv2nEUe13HkicdM6oCj3Y4kX6GfpvcpLE5EzDe69w1atDdtPqrMiAz2HZ6gM0vRURdLYx3D9Wbcqm-jPf7qRj8knR8-4Jpz6LinBKU6uBfi0ybIbXsNKz0BDP-2F3lHMjz9v5-G", "width": 902}], "place_id": "ChIJ9zafzBjvTYgR7NOGh_QhDMk", "plus_code": {"compound_code": "4CPF+64 Radford, Virginia", "global_code": "869X4CPF+64"}, "rating": 0, "reference": "ChIJ9zafzBjvTYgR7NOGh_QhDMk", "types": ["point_of_interest", "establishment"], "user_ratings_total": 0}, {"business_status": "OPERATIONAL", "formatted_address": "867 Washington St SW, Blacksburg, VA 24061, United States", "geometry": {"location": {"lat": 37.2200034, "lng": -80.4218547}, "viewport": {"northeast": {"lat": 37.22176942989272, "lng": -80.42037907010727}, "southwest": {"lat": 37.21906977010728, "lng": -80.42307872989271}}}, "icon": "https://maps.gstatic.com/mapfiles/place_api/icons/v1/png_71/stadium-71.png", "icon_background_color": "#4DB546", "icon_mask_base_uri": "https://maps.gstatic.com/mapfiles/place_api/icons/v2/stadium_pinlet", "name": "Thompson Field", "opening_hours": {"open_now": true}, "photos": [{"height": 2268, "html_attributions": ["<a href=\"https://maps.google.com/maps/contrib/111258532405394634963\">Richard Lovegrove</a>"], "photo_reference": "AW30NDx_dgzOND2zXVIO3SlxQWM4p-IS7IJpew2JF80Z5Qc_pcN4dKflzCqLVOBAtxvtktuQqX1NFFr4h37yYaEmgNnIYn95TQoKl2iNJ1FfnbbQC9QayRkvAM_vG5PRoY_9iQEq-sIobewBpEtn529v2vnyg440ciM6OX__k6z07UssMTWe", "width": 4032}], "place_id": "ChIJB8cHIRCVTYgRuBZTUMYZiyM", "plus_code": {"compound_code": "6HCH+27 Blacksburg, Virginia", "global_code": "869X6HCH+27"}, "rating": 4.8, "reference": "ChIJB8cHIRCVTYgRuBZTUMYZiyM", "types": ["stadium", "point_of_interest", "establishment"], "user_ratings_total": 34}, {"business_status": "OPERATIONAL", "formatted_address": "6328 Merriman Rd, Roanoke, VA 24018, United States", "geometry": {"location": {"lat": 37.2032257, "lng": -79.9994258}, "viewport": {"northeast": {"lat": 37.20453072989272, "lng": -79.99818897010726}, "southwest": {"lat": 37.20183107010727, "lng": -80.00088862989271}}}, "icon": "https://maps.gstatic.com/mapfiles/place_api/icons/v1/png_71/school-71.png", "icon_background_color": "#7B9EB0", "icon_mask_base_uri": "https://maps.gstatic.com/mapfiles/place_api/icons/v2/school_pinlet", "name": "Valley AFC Soccer Club", "opening_hours": {"open_now": false}, "photos": [{"height": 960, "html_attributions": ["<a href=\"https://maps.google.com/maps/contrib/114193551332816154545\">A Google User</a>"], "photo_reference": "AW30NDxpkZ5LAYkSZPSOl7felRvMbjrTE-ltNYJ1eGA0DgBeDwLUCl8zaotuK5J6YoexJZjKt4HYMT__ozAyP2wVLySpkb7KXqhYKmF5QoqqrgG144XLXn_vK0dw8HQlXi0ch2A4GBQJ_PXeuA95uIHWlcpMVfCFYxOUzm-y9QfKTe8p2tdf", "width": 718}], "place_id": "ChIJL4ExgZUNTYgRScwPFrA0qzQ", "plus_code": {"compound_code": "6232+76 Roanoke, Virginia", "global_code": "87926232+76"}, "rating": 4.7, "reference": "ChIJL4ExgZUNTYgRScwPFrA0qzQ", "types": ["point_of_interest", "establishment"], "user_ratings_total": 86}, {"business_status": "OPERATIONAL", "formatted_address": "2002 Highland Farm Rd NW, Roanoke, VA 24017, United States", "geometry": {"location": {"lat": 37.3124181, "lng": -79.9881831}, "viewport": {"northeast": {"lat": 37.31365747989272, "lng": -79.98701312010726}, "southwest": {"lat": 37.31095782010727, "lng": -79.98971277989271}}}, "icon": "https://maps.gstatic.com/mapfiles/place_api/icons/v1/png_71/generic_business-71.png", "icon_background_color": "#7B9EB0", "icon_mask_base_uri": "https://maps.gstatic.com/mapfiles/place_api/icons/v2/generic_pinlet", "name": "VBR Star Soccer Club", "opening_hours": {"open_now": false}, "photos": [{"height": 4016, "html_attributions": ["<a href=\"https://maps.google.com/maps/contrib/100797985868463305818\">A Google User</a>"], "photo_reference": "AW30NDyJMZUwJY13GUrQv7ashX9EUgiFWBE35POUor44cghT12EHc4_Mhw8Dj2Ou6Hiz_x6x5jl2OlefyqI3PSsS5e61AmAUiiMb4TLwjgh9-ZXN7E-R7nxQXbWmXpnCtGHQN8156yM2ypy5iYuOI_UlgVbvTO2ED4Rm_vrK2ftSoIRv1-_N", "width": 6016}], "place_id": "ChIJZyrrsVwLTYgRVtLzR7V4j80", "plus_code": {"compound_code": "8266+XP Roanoke, Virginia", "global_code": "87928266+XP"}, "rating": 4.6, "reference": "ChIJZyrrsVwLTYgRVtLzR7V4j80", "types": ["point_of_interest", "establishment"], "user_ratings_total": 17}, {"business_status": "OPERATIONAL", "formatted_address": "72 St John Rd, Salem, VA 24153, United States", "geometry": {"location": {"lat": 37.2856608, "lng": -80.03018709999999}, "viewport": {"northeast": {"lat": 37.28700207989273, "lng": -80.02876587010728}, "southwest": {"lat": 37.28430242010728, "lng": -80.03146552989273}}}, "icon": "https://maps.gstatic.com/mapfiles/place_api/icons/v1/png_71/generic_business-71.png", "icon_background_color": "#7B9EB0", "icon_mask_base_uri": "https://maps.gstatic.com/mapfiles/place_api/icons/v2/generic_pinlet", "name": "Salem Sabres Soccer Park", "photos": [{"height": 4000, "html_attributions": ["<a href=\"https://maps.google.com/maps/contrib/115853835282086894774\">kevin gomez</a>"], "photo_reference": "AW30NDxUu0a4s-L9QJvU1W0_yswz8N1QWTrJ6HTqCv5SbT1RXho4Pjr2aydhV94jAy3Xr_1yP1Q0oNQrGPyPv1Um0NHfVx-VcKbJsrxc8WJHueTnpLoee0mo59Q7S-tPtoGYvTPOMSt3XnYg0cLsxS_UE1-G3ei4aKU8n5kJ3ImEYJctJM_B", "width": 3000}], "place_id": "ChIJN6EVZZMLTYgRr0lQe2YvyTQ", "plus_code": {"compound_code": "7XP9+7W Salem, Virginia", "global_code": "869X7XP9+7W"}, "rating": 5, "reference": "ChIJN6EVZZMLTYgRr0lQe2YvyTQ", "types": ["point_of_interest", "establishment"], "user_ratings_total": 2}, {"business_status": "OPERATIONAL", "formatted_address": "Blacksburg, VA 24061, United States", "geometry": {"location": {"lat": 37.220145, "lng": -80.420422}, "viewport": {"northeast": {"lat": 37.22150867989272, "lng": -80.41868622010728}, "southwest": {"lat": 37.21880902010728, "lng": -80.42138587989272}}}, "icon": "https://maps.gstatic.com/mapfiles/place_api/icons/v1/png_71/generic_business-71.png", "icon_background_color": "#7B9EB0", "icon_mask_base_uri": "https://maps.gstatic.com/mapfiles/place_api/icons/v2/generic_pinlet", "name": "Moseley Field", "place_id": "ChIJD16CG8OVTYgRUC-Iux8PHxM", "plus_code": {"compound_code": "6HCH+3R Blacksburg, Virginia", "global_code": "869X6HCH+3R"}, "rating": 0, "reference": "ChIJD16CG8OVTYgRUC-Iux8PHxM", "types": ["point_of_interest", "establishment"], "user_ratings_total": 0}, {"business_status": "OPERATIONAL", "formatted_address": "3624 Aerial Way Dr, Roanoke, VA 24018, United States", "geometry": {"location": {"lat": 37.2682616, "lng": -80.0077842}, "viewport": {"northeast": {"lat": 37.26964942989273, "lng": -80.00654397010727}, "southwest": {"lat": 37.26694977010729, "lng": -80.00924362989272}}}, "icon": "https://maps.gstatic.com/mapfiles/place_api/icons/v1/png_71/generic_business-71.png", "icon_background_color": "#7B9EB0", "icon_mask_base_uri": "https://maps.gstatic.com/mapfiles/place_api/icons/v2/generic_pinlet", "name": "Star City Soccer Center", "photos": [{"height": 3000, "html_attributions": ["<a href=\"https://maps.google.com/maps/contrib/115853835282086894774\">kevin gomez</a>"], "photo_reference": "AW30NDwROX6rXMHd-Rbzm1KFTDCnLZr-z0H8xYFdp9I55_PoUysqpPDaX4XA0c1EYZp8af8gLJkAHgc0UQHmgO5RMMJoy8HiEHla2szU-nzwIZOPHPPU4ChwWa48dWprqS5Qp3PICVfZhj1OFM2JHcsulbqQzto7Y0qGWTdvp6t712JeNJlj", "width": 4000}], "place_id": "ChIJqS-rGngMTYgRAgtTbN_ZRrc", "plus_code": {"compound_code": "7X9R+8Q Roanoke, Virginia", "global_code": "869X7X9R+8Q"}, "rating": 4.4, "reference": "ChIJqS-rGngMTYgRAgtTbN_ZRrc", "types": ["gym", "health", "point_of_interest", "establishment"], "user_ratings_total": 35}, {"business_status": "OPERATIONAL", "formatted_address": "4341 Starkey Rd, Roanoke, VA 24018, United States", "geometry": {"location": {"lat": 37.2287194, "lng": -79.9823218}, "viewport": {"northeast": {"lat": 37.22999062989272, "lng": -79.98094022010727}, "southwest": {"lat": 37.22729097010728, "lng": -79.98363987989272}}}, "icon": "https://maps.gstatic.com/mapfiles/place_api/icons/v1/png_71/shopping-71.png", "icon_background_color": "#4B96F3", "icon_mask_base_uri": "https://maps.gstatic.com/mapfiles/place_api/icons/v2/shopping_pinlet", "name": "Soccer Post Roanoke", "opening_hours": {"open_now": false}, "photos": [{"height": 1080, "html_attributions": ["<a href=\"https://maps.google.com/maps/contrib/116743315957897921645\">A Google User</a>"], "photo_reference": "AW30NDzFY38KsgVQZphnVcJCjoceTf3BQMHrXzYuE_DvyvMgK0C-wN_OMIxy7zmP1-rOL_M3L-QEyfgPgXBv5-JGA7cPQP5-BoqfMbxpzx6H_3hUvjx6g-11022_UKoHTM2PahgaBUJ7njyQ2E2iToGU1-hgcuYVZzPk_BVSt1QqplBQyuvu", "width": 1080}], "place_id": "ChIJTWxzEwgNTYgRM6_Gqfp8y_0", "plus_code": {"compound_code": "62H9+F3 Roanoke, Virginia", "global_code": "879262H9+F3"}, "rating": 4.8, "reference": "ChIJTWxzEwgNTYgRM6_Gqfp8y_0", "types": ["store", "point_of_interest", "establishment"], "user_ratings_total": 37}, {"business_status": "OPERATIONAL", "formatted_address": "CRC Trail, Blacksburg, VA 24060, United States", "geometry": {"location": {"lat": 37.2140496, "lng": -80.41814389999999}, "viewport": {"northeast": {"lat": 37.21542477989271, "lng": -80.41679097010727}, "southwest": {"lat": 37.21272512010727, "lng": -80.41949062989272}}}, "icon": "https://maps.gstatic.com/mapfiles/place_api/icons/v1/png_71/generic_business-71.png", "icon_background_color": "#7B9EB0", "icon_mask_base_uri": "https://maps.gstatic.com/mapfiles/place_api/icons/v2/generic_pinlet", "name": "Upper Rec Fields", "photos": [{"height": 2268, "html_attributions": ["<a href=\"https://maps.google.com/maps/contrib/115705134720591240145\">A Google User</a>"], "photo_reference": "AW30NDz4nLHD_g54rh6-C37i6gjfqNnVzmnHReQHpm9b0QtsvFYrWw-ctQwZqJxtHX6AZDQS23_DRsgUaPyqWaBINwBHQ-yGS9GNP84VelkbZb2sQaoQq2GdJvZSSf9PzbxiaF_gCXekdEStx2lFdvJhj06oxxDlVwgw84PyCEyo7_bfhtFi", "width": 4032}], "place_id": "ChIJu4Ez_fWVTYgRQf5Tt2CtOaM", "plus_code": {"compound_code": "6H7J+JP Blacksburg, Virginia", "global_code": "869X6H7J+JP"}, "rating": 5, "reference": "ChIJu4Ez_fWVTYgRQf5Tt2CtOaM", "types": ["point_of_interest", "establishment"], "user_ratings_total": 10}, {"business_status": "OPERATIONAL", "formatted_address": "400 University Dr, Radford, VA 24141, United States", "geometry": {"location": {"lat": 37.1392716, "lng": -80.5439777}, "viewport": {"northeast": {"lat": 37.14099732989273, "lng": -80.54227767010727}, "southwest": {"lat": 37.13829767010728, "lng": -80.54497732989272}}}, "icon": "https://maps.gstatic.com/mapfiles/place_api/icons/v1/png_71/stadium-71.png", "icon_background_color": "#4DB546", "icon_mask_base_uri": "https://maps.gstatic.com/mapfiles/place_api/icons/v2/stadium_pinlet", "name": "Cupp Memorial Stadium", "photos": [{"height": 3000, "html_attributions": ["<a href=\"https://maps.google.com/maps/contrib/106069559876950114935\">Jasmine Henderson</a>"], "photo_reference": "AW30NDwJZN7Q5jxXRK7vEM3DeL0EB5yu_EyMK98dfeKBfwqqUZamTAhBMyk7CpZy9wacmUgiUHVyrYLdp2zaurGl4C1MBSGiiXE-fEU3ODeSXNaE-qv17JdudRry7a6Oy7qq0k5SIoZC3R7Ki8e_hD8mi9eq9lo2qTyP_hy7dQ8phrPFyIrB", "width": 4000}], "place_id": "ChIJgYROCoLuTYgRChalgWha3K0", "plus_code": {"compound_code": "4FQ4+PC Radford, Virginia", "global_code": "869X4FQ4+PC"}, "rating": 4.6, "reference": "ChIJgYROCoLuTYgRChalgWha3K0", "types": ["stadium", "point_of_interest", "establishment"], "user_ratings_total": 13}, {"business_status": "OPERATIONAL", "formatted_address": "Beamer Way, Blacksburg, VA 24060, United States", "geometry": {"location": {"lat": 37.2218285, "lng": -80.4176004}, "viewport": {"northeast": {"lat": 37.22334017989273, "lng": -80.41599202010728}, "southwest": {"lat": 37.22064052010728, "lng": -80.41869167989272}}}, "icon": "https://maps.gstatic.com/mapfiles/place_api/icons/v1/png_71/generic_business-71.png", "icon_background_color": "#7B9EB0", "icon_mask_base_uri": "https://maps.gstatic.com/mapfiles/place_api/icons/v2/generic_pinlet", "name": "Beamer-Lawson Indoor Practice Facility", "photos": [{"height": 3024, "html_attributions": ["<a href=\"https://maps.google.com/maps/contrib/104972261144722460872\">Ruijin Lu</a>"], "photo_reference": "AW30NDw1eb5_4S1VKYCEtSrU9RXmaLDfQJ0qewOk55vD5quDMm-Gg4HQeCs__bYDkb-q7m2p0h7NYHmZggc86BnW98red8i5R-AQsE53d7qe5BcQd8l4O1ptdC76AAbqCRAiyTZrgo8lFjt7WIGgR36Yg4SaUpbtduOdE9xxCbC4lKSEij1a", "width": 4032}], "place_id": "ChIJ4RcX6g6VTYgRKE8xXyugN6I", "plus_code": {"compound_code": "6HCJ+PX Blacksburg, Virginia", "global_code": "869X6HCJ+PX"}, "rating": 4.8, "reference": "ChIJ4RcX6g6VTYgRKE8xXyugN6I", "types": ["point_of_interest", "establishment"], "user_ratings_total": 20}, {"business_status": "OPERATIONAL", "formatted_address": "New River Dr, Radford, VA 24141, United States", "geometry": {"location": {"lat": 37.1430984, "lng": -80.5613358}, "viewport": {"northeast": {"lat": 37.14446282989272, "lng": -80.56000912010727}, "southwest": {"lat": 37.14176317010728, "lng": -80.56270877989272}}}, "icon": "https://maps.gstatic.com/mapfiles/place_api/icons/v1/png_71/generic_business-71.png", "icon_background_color": "#7B9EB0", "icon_mask_base_uri": "https://maps.gstatic.com/mapfiles/place_api/icons/v2/generic_pinlet", "name": "New River Sports Complex", "photos": [{"height": 4032, "html_attributions": ["<a href=\"https://maps.google.com/maps/contrib/102583764212834531029\">Christine Sutton</a>"], "photo_reference": "AW30NDzRCJR-cDrj9j0FM7wU0Sw6nYzEuiL1E1ajFwCQdJH9Edi2EiCpf1pCjbY4q47TTcPZ2f0V7cFe6R1tIUfk_cVdug5Ow4PBWKXuRMWu3JY7GvPRdZwREGCv0wtbrAPbW-My8LOJ8adHenfZYATnjo0KQadh4uLXoi40oi8XpQ2SWcv2", "width": 3024}], "place_id": "ChIJJav6xI3uTYgRicz3lsqp-8g", "plus_code": {"compound_code": "4CVQ+6F Radford, Virginia", "global_code": "869X4CVQ+6F"}, "rating": 4.5, "reference": "ChIJJav6xI3uTYgRicz3lsqp-8g", "types": ["point_of_interest", "establishment"], "user_ratings_total": 11}, {"business_status": "OPERATIONAL", "formatted_address": "142 Mccomas Hall, Blacksburg, VA 24061, United States", "geometry": {"location": {"lat": 37.2206232, "lng": -80.42245059999999}, "viewport": {"northeast": {"lat": 37.22209307989272, "lng": -80.42118922010728}, "southwest": {"lat": 37.21939342010728, "lng": -80.42388887989271}}}, "icon": "https://maps.gstatic.com/mapfiles/place_api/icons/v1/png_71/school-71.png", "icon_background_color": "#7B9EB0", "icon_mask_base_uri": "https://maps.gstatic.com/mapfiles/place_api/icons/v2/school_pinlet", "name": "Virginia Tech: Department of Recreational Sports", "opening_hours": {"open_now": false}, "place_id": "ChIJq6qqS2yVTYgRmSQ5AprI2o4", "plus_code": {"compound_code": "6HCH+62 Blacksburg, Virginia", "global_code": "869X6HCH+62"}, "rating": 4.7, "reference": "ChIJq6qqS2yVTYgRmSQ5AprI2o4", "types": ["point_of_interest", "establishment"], "user_ratings_total": 3}, {"business_status": "OPERATIONAL", "formatted_address": "50 Dalton Dr, Radford, VA 24141, United States", "geometry": {"location": {"lat": 37.1325786, "lng": -80.56762979999999}, "viewport": {"northeast": {"lat": 37.13394782989272, "lng": -80.56609057010728}, "southwest": {"lat": 37.13124817010728, "lng": -80.56879022989271}}}, "icon": "https://maps.gstatic.com/mapfiles/place_api/icons/v1/png_71/generic_business-71.png", "icon_background_color": "#7B9EB0", "icon_mask_base_uri": "https://maps.gstatic.com/mapfiles/place_api/icons/v2/generic_pinlet", "name": "Norman G. Lineburg Field", "photos": [{"height": 2268, "html_attributions": ["<a href=\"https://maps.google.com/maps/contrib/117256011717947761526\">Bryant Altizer</a>"], "photo_reference": "AW30NDytwdf1u4K7hZmN924EUUf489I0LMJg_hy09DTiROHSrEvBYZ1JOw8leLuqjc-VgshnLSZCKtTL4OBy46iYMymWGDo8F2JUHNEPs0DaFvQbo00ZyCFA1XUiGF8EuUN6bRTSiAVlnBD1L7MRAZ0oapAh9AUckkTWXKsCvnXi9HCgiw8l", "width": 4032}], "place_id": "ChIJqaP4tl_uTYgRqyazMFWwOhg", "plus_code": {"compound_code": "4CMJ+2W Radford, Virginia", "global_code": "869X4CMJ+2W"}, "rating": 5, "reference": "ChIJqaP4tl_uTYgRqyazMFWwOhg", "types": ["point_of_interest", "establishment"], "user_ratings_total": 3}, {"business_status": "OPERATIONAL", "formatted_address": "1140 Connecticut Ave NW Suite 1200, Washington, DC 20036, United States", "geometry": {"location": {"lat": 38.904963, "lng": -77.041219}, "viewport": {"northeast": {"lat": 38.90637337989271, "lng": -77.03969822010728}, "southwest": {"lat": 38.90367372010727, "lng": -77.04239787989272}}}, "icon": "https://maps.gstatic.com/mapfiles/place_api/icons/v1/png_71/generic_business-71.png", "icon_background_color": "#7B9EB0", "icon_mask_base_uri": "https://maps.gstatic.com/mapfiles/place_api/icons/v2/generic_pinlet", "name": "U.S. Soccer Foundation", "opening_hours": {"open_now": false}, "place_id": "ChIJHWDjzb63t4kRLVYoQVPO2Ug", "plus_code": {"compound_code": "WX35+XG Washington, District of Columbia", "global_code": "87C4WX35+XG"}, "rating": 5, "reference": "ChIJHWDjzb63t4kRLVYoQVPO2Ug", "types": ["point_of_interest", "establishment"], "user_ratings_total": 3}, {"business_status": "OPERATIONAL", "formatted_address": "10402 Decatur Rd, Philadelphia, PA 19154, United States", "geometry": {"location": {"lat": 40.0870772, "lng": -74.99953239999999}, "viewport": {"northeast": {"lat": 40.08837967989272, "lng": -74.99812732010727}, "southwest": {"lat": 40.08568002010728, "lng": -75.00082697989272}}}, "icon": "https://maps.gstatic.com/mapfiles/place_api/icons/v1/png_71/generic_business-71.png", "icon_background_color": "#7B9EB0", "icon_mask_base_uri": "https://maps.gstatic.com/mapfiles/place_api/icons/v2/generic_pinlet", "name": "Philadelphia Soccer Club", "photos": [{"height": 4032, "html_attributions": ["<a href=\"https://maps.google.com/maps/contrib/104872147494133042611\">A Google User</a>"], "photo_reference": "AW30NDz5llXmr9khjP7RoMEzYElAcEZvWTksjeju_VMSKCGl8NobpB1XmlPwuUFmg8aQmC5GNge3pUxnUoP0kqYf7E_fDhUbT62p-nRsZjEw8yeLi_lm9TZKB6OlnhC72QtsOYDMmW52E0PcZKN56Ff3ciB5xacjKV8Z6bU--nuqmDVqwTu9", "width": 3024}], "place_id": "ChIJ_YWQihCzxokR33tjKfD9zjo", "plus_code": {"compound_code": "32P2+R5 Philadelphia, Pennsylvania", "global_code": "87G732P2+R5"}, "rating": 3.9, "reference": "ChIJ_YWQihCzxokR33tjKfD9zjo", "types": ["point_of_interest", "establishment"], "user_ratings_total": 42}, {"business_status": "OPERATIONAL", "formatted_address": "530 Beamer Way, Blacksburg, VA 24060, United States", "geometry": {"location": {"lat": 37.2219008, "lng": -80.41736569999999}, "viewport": {"northeast": {"lat": 37.22335327989272, "lng": -80.41585192010729}, "southwest": {"lat": 37.22065362010728, "lng": -80.41855157989274}}}, "icon": "https://maps.gstatic.com/mapfiles/place_api/icons/v1/png_71/school-71.png", "icon_background_color": "#7B9EB0", "icon_mask_base_uri": "https://maps.gstatic.com/mapfiles/place_api/icons/v2/school_pinlet", "name": "Indoor Athletic Training Facility", "photos": [{"height": 4000, "html_attributions": ["<a href=\"https://maps.google.com/maps/contrib/114267846325555974643\">Andy Bird</a>"], "photo_reference": "AW30NDxWyBErWBumjIhJaA9x8b0RQ7VtLZxF-l9_TnIYkqZoAwJUOibSIPVPVk2bWGLh6iNio-KB-J3hcruI9OuzT48cYg25WtL7YFWUfB0cp4cJ-GOroVAGwfTrYPTyUv0cHENh-m9tKoz7ky5qO1c2ymsTm8UQjDYcxOsAiXaewFYRZ2aK", "width": 3000}], "place_id": "ChIJCZEI6g6VTYgRrWlStYwFIbk", "plus_code": {"compound_code": "6HCM+Q3 Blacksburg, Virginia", "global_code": "869X6HCM+Q3"}, "rating": 0, "reference": "ChIJCZEI6g6VTYgRrWlStYwFIbk", "types": ["point_of_interest", "establishment"], "user_ratings_total": 0}], "status": "OK"}
